id,detailUrl,streetAddress,zipcode,city,state,latitude,longitude,price,bathrooms,bedrooms,livingArea,yearBuilt,lotSize,homeType,homeStatus,photoCount
106757235,https://www.zillow.com/homedetails/304-W-Edward-Ave-Warren-MN-56762/106757235_zpid/,304 W Edward Ave,56762,Warren,MN,48.199414,-96.778301,95000.0,2.0,3.0,1800.0,1910,19166.0,SINGLE_FAMILY,FOR_SALE,27
106757056,https://www.zillow.com/homedetails/723-N-Division-St-Warren-MN-56762/106757056_zpid/,723 N Division St,56762,Warren,MN,48.198489,-96.777306,34900.0,1.0,2.0,1008.0,1958,3049.0,SINGLE_FAMILY,FOR_SALE,4
2080394981,https://www.zillow.com/homedetails/601-Western-Ave-Warren-MN-56762/2080394981_zpid/,601 Western Ave,56762,Warren,MN,48.196172,-96.781907,179900.0,2.0,4.0,2432.0,2005,20908.0,SINGLE_FAMILY,FOR_SALE,48
125688767,https://www.zillow.com/homedetails/211-W-Good-Samaritan-Dr-Warren-MN-56762/125688767_zpid/,211 W Good Samaritan Dr,56762,Warren,MN,48.190174,-96.773574,242000.0,2.0,2.0,2364.0,2013,8712.0,SINGLE_FAMILY,FOR_SALE,57
2082690185,https://www.zillow.com/homedetails/690-N-Montana-St-Warren-MN-56762/2082690185_zpid/,690 N Montana St,56762,Warren,MN,48.197682,-96.78073,189900.0,2.0,3.0,1404.0,2019,17424.0,SINGLE_FAMILY,FOR_SALE,31
106757240,https://www.zillow.com/homedetails/733-E-Fletcher-Ave-Warren-MN-56762/106757240_zpid/,733 E Fletcher Ave,56762,Warren,MN,48.198765,-96.762195,209900.0,3.0,4.0,3324.0,1961,15999.0,SINGLE_FAMILY,FOR_SALE,35
106757143,https://www.zillow.com/homedetails/617-E-Johnson-Ave-Warren-MN-56762/106757143_zpid/,617 E Johnson Ave,56762,Warren,MN,48.19957,-96.764319,95000.0,1.0,4.0,1512.0,1948,8398.0,SINGLE_FAMILY,FOR_SALE,29
2085835760,https://www.zillow.com/homedetails/34481-290th-St-NW-Warren-MN-56762/2085835760_zpid/,34481 290th St NW,56762,Warren,MN,48.296191,-96.793804,124900.0,1.0,3.0,1620.0,1964,102365.0,SINGLE_FAMILY,FOR_SALE,33
106756870,https://www.zillow.com/homedetails/405-N-3rd-St-Warren-MN-56762/106756870_zpid/,405 N 3rd St,56762,Warren,MN,48.196985,-96.768668,120000.0,2.0,2.0,1596.0,1975,10454.0,SINGLE_FAMILY,FOR_SALE,2
