id,detailUrl,streetAddress,zipcode,city,state,latitude,longitude,price,bathrooms,bedrooms,livingArea,yearBuilt,lotSize,homeType,homeStatus,photoCount
106664037,https://www.zillow.com/homedetails/41853-County-12-Mabel-MN-55954/106664037_zpid/,41853 County 12,55954,Mabel,MN,43.632885,-91.812644,335000.0,2.0,4.0,2188.0,1997,463478.0,SINGLE_FAMILY,FOR_SALE,100
2080817606,https://www.zillow.com/homedetails/231-S-Robert-St-Mabel-MN-55954/2080817606_zpid/,231 S Robert St,55954,Mabel,MN,43.517695,-91.760553,225000.0,2.0,2.0,1528.0,2018,3397.0,SINGLE_FAMILY,FOR_SALE,11
2080824912,https://www.zillow.com/homedetails/12038-State-Hwy-43-Mabel-MN-55954/2080824912_zpid/,12038 State Hwy 43,55954,Mabel,MN,43.530207,-91.76939,264900.0,2.0,5.0,2136.0,1913,212137.0,SINGLE_FAMILY,FOR_SALE,36
106660014,https://www.zillow.com/homedetails/40635-County-24-Mabel-MN-55954/106660014_zpid/,40635 County 24,55954,Mabel,MN,43.571186,-91.837419,125000.0,1.0,2.0,1692.0,1885,435600.0,SINGLE_FAMILY,FOR_SALE,27
106667472,https://www.zillow.com/homedetails/39230-120th-St-Mabel-MN-55954/106667472_zpid/,39230 120th St,55954,Mabel,MN,43.529813,-91.866759,229000.0,1.0,4.0,1792.0,2002,156816.0,SINGLE_FAMILY,FOR_SALE,17
106661778,https://www.zillow.com/homedetails/301-Oak-St-N-Mabel-MN-55954/106661778_zpid/,301 Oak St N,55954,Mabel,MN,43.522771,-91.772646,149000.0,2.0,5.0,2527.0,1897,14810.0,SINGLE_FAMILY,FOR_SALE,20
106664509,https://www.zillow.com/homedetails/16294-431st-Ave-Mabel-MN-55954/106664509_zpid/,16294 431st Ave,55954,Mabel,MN,43.593161,-91.789594,398900.0,2.0,3.0,616.0,2007,365903.0,SINGLE_FAMILY,FOR_SALE,8
106661628,https://www.zillow.com/homedetails/201-Oak-St-N-Mabel-MN-55954/106661628_zpid/,201 Oak St N,55954,Mabel,MN,43.521686,-91.772646,45400.0,1.0,3.0,1566.0,1879,8537.0,SINGLE_FAMILY,FOR_SALE,0
106661831,https://www.zillow.com/homedetails/305-Locust-St-N-Mabel-MN-55954/106661831_zpid/,305 Locust St N,55954,Mabel,MN,43.522912,-91.767735,119000.0,2.0,4.0,2260.0,1927,9000.0,SINGLE_FAMILY,FOR_SALE,27
