id,detailUrl,streetAddress,zipcode,city,state,latitude,longitude,price,bathrooms,bedrooms,livingArea,yearBuilt,lotSize,homeType,homeStatus,photoCount
122024609,https://www.zillow.com/homedetails/12414-Solitude-Way-Merrifield-MN-56465/122024609_zpid/,12414 Solitude Way,56465,Merrifield,MN,46.592576,-94.127593,389900.0,4.0,3.0,3190.0,2013,130680.0,SINGLE_FAMILY,FOR_SALE,40
2088023496,https://www.zillow.com/homedetails/14713-Lazur-Ln-Merrifield-MN-56465/2088023496_zpid/,14713 Lazur Ln,56465,Merrifield,MN,46.545876,-94.094677,220000.0,2.0,4.0,1528.0,1979,48351.0,SINGLE_FAMILY,FOR_SALE,39
92521078,https://www.zillow.com/homedetails/13806-Hummingbird-Ln-Merrifield-MN-56465/92521078_zpid/,13806 Hummingbird Ln,56465,Merrifield,MN,46.531449,-94.113917,299900.0,2.0,3.0,1887.0,2005,250034.0,SINGLE_FAMILY,FOR_SALE,56
92526596,https://www.zillow.com/homedetails/14281-County-Road-116-Merrifield-MN-56465/92526596_zpid/,14281 County Road 116,56465,Merrifield,MN,46.54114,-94.103862,469900.0,3.0,5.0,3004.0,2001,211266.0,SINGLE_FAMILY,FOR_SALE,31
2082439870,https://www.zillow.com/homedetails/26358-Shandy-Trl-Merrifield-MN-56465/2082439870_zpid/,26358 Shandy Trl,56465,Merrifield,MN,46.533607,-94.144005,400000.0,4.0,5.0,1.0,2018,-1.0,SINGLE_FAMILY,FOR_SALE,29
2089996345,https://www.zillow.com/homedetails/25463-Blue-Bonnet-Rd-9-Merrifield-MN-56465/2089996345_zpid/,25463 Blue Bonnet Rd #9,56465,Merrifield,MN,46.521362,-94.135998,204900.0,1.0,2.0,663.0,2004,1620.0,SINGLE_FAMILY,FOR_SALE,25
248726050,https://www.zillow.com/homedetails/13265-Settler-Trl-Merrifield-MN-56465/248726050_zpid/,13265 Settler Trl,56465,Merrifield,MN,46.471762,-94.125088,255000.0,3.0,4.0,2464.0,2018,217800.0,SINGLE_FAMILY,FOR_SALE,33
92525410,https://www.zillow.com/homedetails/14048-County-Road-109-Merrifield-MN-56465/92525410_zpid/,14048 County Road 109,56465,Merrifield,MN,46.562798,-94.108057,224900.0,2.0,3.0,1461.0,1979,906483.0,SINGLE_FAMILY,FOR_SALE,10
2097725730,https://www.zillow.com/homedetails/29299-Surfland-Rd-Merrifield-MN-56465/2097725730_zpid/,29299 Surfland Rd,56465,Merrifield,MN,46.577065,-94.10091,160000.0,1.0,2.0,1.0,1973,34412.0,SINGLE_FAMILY,FOR_SALE,20
