id,detailUrl,streetAddress,zipcode,city,state,latitude,longitude,price,bathrooms,bedrooms,livingArea,yearBuilt,lotSize,homeType,homeStatus,photoCount
106681148,https://www.zillow.com/homedetails/202-Iowa-Ave-Hoffman-MN-56339/106681148_zpid/,202 Iowa Ave,56339,Hoffman,MN,45.833952,-95.792122,83000.0,1.0,4.0,1162.0,1909,10018.0,SINGLE_FAMILY,RECENTLY_SOLD,16
106654047,https://www.zillow.com/homedetails/3011-Island-Rd-SW-Hoffman-MN-56339/106654047_zpid/,3011 Island Rd SW,56339,Hoffman,MN,45.865252,-95.72385,235000.0,2.0,4.0,2401.0,1926,71874.0,SINGLE_FAMILY,RECENTLY_SOLD,19
194207986,https://www.zillow.com/homedetails/408-1st-St-N-Hoffman-MN-56339/194207986_zpid/,408 1st St N,56339,Hoffman,MN,45.83486,-95.794426,39000.0,1.0,2.0,288.0,1950,26571.0,SINGLE_FAMILY,RECENTLY_SOLD,10
194207775,https://www.zillow.com/homedetails/102-Arkansas-Ave-Hoffman-MN-56339/194207775_zpid/,102 Arkansas Ave,56339,Hoffman,MN,45.828984,-95.790874,57000.0,2.0,3.0,3282.0,1910,12196.0,SINGLE_FAMILY,RECENTLY_SOLD,0
194207879,https://www.zillow.com/homedetails/406-4th-St-S-Hoffman-MN-56339/194207879_zpid/,406 4th St S,56339,Hoffman,MN,45.82727,-95.786524,19500.0,2.0,2.0,1344.0,1910,22215.0,SINGLE_FAMILY,RECENTLY_SOLD,14
106654023,https://www.zillow.com/homedetails/22920-Red-Rock-Shores-Dr-SW-Hoffman-MN-56339/106654023_zpid/,22920 Red Rock Shores Dr SW,56339,Hoffman,MN,45.871444,-95.716603,230000.0,2.0,2.0,1512.0,2005,30492.0,MANUFACTURED,RECENTLY_SOLD,29
2082721100,https://www.zillow.com/homedetails/23010-Red-Rocks-Drive-Sw-Hoffman-MN-56339/2082721100_zpid/,23010 Red Rocks Drive Sw,56339,Hoffman,MN,45.871379,-95.718335,299900.0,2.0,3.0,1904.0,-1,-1.0,SINGLE_FAMILY,RECENTLY_SOLD,0
106681338,https://www.zillow.com/homedetails/214-Dakota-Ave-Hoffman-MN-56339/106681338_zpid/,214 Dakota Ave,56339,Hoffman,MN,45.832808,-95.790189,50000.0,2.0,3.0,1937.0,1900,20473.0,SINGLE_FAMILY,RECENTLY_SOLD,28
194207746,https://www.zillow.com/homedetails/208-Alaska-Ave-Hoffman-MN-56339/194207746_zpid/,208 Alaska Ave,56339,Hoffman,MN,45.831862,-95.790746,107000.0,2.0,3.0,1445.0,1930,4356.0,SINGLE_FAMILY,RECENTLY_SOLD,20
106681308,https://www.zillow.com/homedetails/113-Memorial-Dr-NW-Hoffman-MN-56339/106681308_zpid/,113 Memorial Dr NW,56339,Hoffman,MN,45.830026,-95.795121,175000.0,2.0,4.0,3228.0,1973,30492.0,SINGLE_FAMILY,RECENTLY_SOLD,47
106681317,https://www.zillow.com/homedetails/101-Memorial-Dr-NW-Hoffman-MN-56339/106681317_zpid/,101 Memorial Dr NW,56339,Hoffman,MN,45.82897,-95.793629,30000.0,2.0,4.0,2300.0,1920,4138.0,SINGLE_FAMILY,RECENTLY_SOLD,30
106681176,https://www.zillow.com/homedetails/109-Iowa-Ave-Hoffman-MN-56339/106681176_zpid/,109 Iowa Ave,56339,Hoffman,MN,45.833326,-95.793529,103500.0,3.0,3.0,1824.0,1900,14810.0,SINGLE_FAMILY,SOLD,30
122614171,https://www.zillow.com/homedetails/102-8th-St-S-Hoffman-MN-56339/122614171_zpid/,102 8th St S,56339,Hoffman,MN,45.830156,-95.781365,205000.0,2.0,3.0,1916.0,2010,22651.0,SINGLE_FAMILY,SOLD,21
2087640836,https://www.zillow.com/homedetails/108-8th-St-S-Hoffman-MN-56339/2087640836_zpid/,108 8th St S,56339,Hoffman,MN,45.8295,-95.7818,200750.0,2.0,2.0,1550.0,2018,9583.0,SINGLE_FAMILY,SOLD,9
106681179,https://www.zillow.com/homedetails/200-3rd-St-S-Hoffman-MN-56339/106681179_zpid/,200 3rd St S,56339,Hoffman,MN,45.829278,-95.789307,161000.0,3.0,3.0,2800.0,1975,20908.0,SINGLE_FAMILY,SOLD,27
106655121,https://www.zillow.com/homedetails/4311-Westridge-Ln-SW-Hoffman-MN-56339/106655121_zpid/,4311 Westridge Ln SW,56339,Hoffman,MN,45.853036,-95.725774,315000.0,3.0,4.0,2614.0,1992,40075.0,SINGLE_FAMILY,SOLD,0
106681185,https://www.zillow.com/homedetails/307-Carolina-Ave-Hoffman-MN-56339/106681185_zpid/,307 Carolina Ave,56339,Hoffman,MN,45.828336,-95.788485,129900.0,3.0,4.0,2368.0,1970,2147483647.0,SINGLE_FAMILY,SOLD,30
106681354,https://www.zillow.com/homedetails/408-County-Road-5-Hoffman-MN-56339/106681354_zpid/,408 County Road 5,56339,Hoffman,MN,45.827505,-95.789836,275000.0,3.0,4.0,3082.0,1990,132422.0,SINGLE_FAMILY,SOLD,34
2089504139,https://www.zillow.com/homedetails/113-Iowa-Ave-Hoffman-MN-56339/2089504139_zpid/,113 Iowa Ave,56339,Hoffman,MN,45.833378,-95.794628,87650.0,2.0,3.0,1380.0,-1,-1.0,SINGLE_FAMILY,SOLD,0
106681216,https://www.zillow.com/homedetails/310-Carolina-Ave-Hoffman-MN-56339/106681216_zpid/,310 Carolina Ave,56339,Hoffman,MN,45.829139,-95.788267,54500.0,1.0,3.0,1908.0,1900,10890.0,SINGLE_FAMILY,SOLD,14
2094271346,https://www.zillow.com/homedetails/514-County-Road-5-Hoffman-MN-56339/2094271346_zpid/,514 County Road 5,56339,Hoffman,MN,45.8131,-95.7845,242000.0,3.0,5.0,1768.0,2007,111078.0,SINGLE_FAMILY,SOLD,0
113925117,https://www.zillow.com/homedetails/11968-165th-St-Hoffman-MN-56339/113925117_zpid/,11968 165th St,56339,Hoffman,MN,45.854262,-95.779896,165000.0,1.0,3.0,1456.0,2006,80586.0,SINGLE_FAMILY,SOLD,24
2093963674,https://www.zillow.com/homedetails/22742-Red-Rock-Shores-Hoffman-MN-56339/2093963674_zpid/,22742 Red Rock Shores,56339,Hoffman,MN,45.870881,-95.714236,152500.0,1.0,2.0,1064.0,-1,-1.0,SINGLE_FAMILY,SOLD,0
106681214,https://www.zillow.com/homedetails/502-4th-St-S-Hoffman-MN-56339/106681214_zpid/,502 4th St S,56339,Hoffman,MN,45.826175,-95.786804,71000.0,1.0,2.0,1168.0,1940,14810.0,SINGLE_FAMILY,SOLD,19
